[ {  
    "id": 4331.934,
    "Contact_info": {"Name": "LONG DENISE", "Cell": "15103920043"},
    "Complete": "100",
    "AwardDate": "08/12/2012",
    "Project_desc": "North Carolina project example",
    "Contract$" : "1236.07",
    "Location" : {"State": "NC", "County":"Sonoma"} 
  },
  {  
    "id": 4231.935,
    "Contact_info": {"Name": "LONG DENISE", "Cell": "15103920043"},
    "Complete": "100",
    "AwardDate": "08/12/2019",
    "Project_desc": "Oregon project example",
    "Contract$" : "1646.07",
    "Location" : {"State": "LA", "County":"Sonoma"} 
  },
  {  
    "id": 4334.936,
    "Contact_info": {"Name": "RUGGERI DENISE", "Cell": "15103920043"},
    "Complete": "100",
    "AwardDate": "08/12/2021",
    "Project_desc": "oklahoma project example",
    "Contract$" : "20.00",
    "Location" : {"State": "OK", "County":"Yolo"} 
  },
  {  
    "id": 4331.937,
    "Contact_info": {"Name": "VIVES MAR", "Cell": "15103920043"},
    "Complete": "100",
    "AwardDate": "08/12/1997",
    "Project_desc": "Rhode Island project example",
    "Contract$" : "146.07",
    "Location" : {"State": "RI", "County":"Yolo"} 
  },
  {  
    "id": 4351.938,
    "Contact_info": {"Name": "GONZALES ANDREA", "Cell": "15103920043"},
    "Complete": "100",
    "AwardDate": "08/12/1997",
    "Project_desc": "Texas project example",
    "Contract$" : "1943.07",
    "Location" : {"State": "TX", "County":"San Francisco"} 
  },
  {  
    "id": 4391.939,
    "Contact_info": {"Name": "GONZALES ANDREA", "Cell": "15103920043"},
    "Complete": "100",
    "AwardDate": "08/12/1997",
    "Project_desc": "Iowa project example",
    "Contract$" : "130.07",
    "Location" : {"State": "IA", "County":"Santa Cruz"} 
  },{  
    "id": 4361.904,
    "Contact_info": {"Name": "LONG DENISE", "Cell": "15103920043"},
    "Complete": "100",
    "AwardDate": "08/12/2012",
    "Project_desc": "Washington project example",
    "Contract$" : "1202094.07",
    "Location" : {"State": "WA", "County":"Sonoma"} 
  },
  {  
    "id": 4331.935,
    "Contact_info": {"Name": "LONG DENISE", "Cell": "15103920043"},
    "Complete": "100",
    "AwardDate": "08/12/2019",
    "Project_desc": "Oregon project example",
    "Contract$" : "39283.07",
    "Location" : {"State": "MI", "County":"Sonoma"} 
  },
  {  
    "id": 4331.936,
    "Contact_info": {"Name": "RUGGERI DENISE", "Cell": "15103920043"},
    "Complete": "100",
    "AwardDate": "08/12/2021",
    "Project_desc": "Nevada project example",
    "Contract$" : "40.00",
    "Location" : {"State": "NV", "County":"Yolo"} 
  },
  {  
    "id": 4331.937,
    "Contact_info": {"Name": "VIVES MAR", "Cell": "15103920043"},
    "Complete": "100",
    "AwardDate": "08/12/1997",
    "Project_desc": "California project example",
    "Contract$" : "14639.07",
    "Location" : {"State": "CA", "County":"Yolo"} 
  },
  {  
    "id": 4331.938,
    "Contact_info": {"Name": "GONZALES ANDREA", "Cell": "15103920043"},
    "Complete": "100",
    "AwardDate": "08/12/1997",
    "Project_desc": "Another Texas project example",
    "Contract$" : "1443.07",
    "Location" : {"State": "TX", "County":"San Francisco"} 
  },
  {  
    "id": 4331.939,
    "Contact_info": {"Name": "GONZALES ANDREA", "Cell": "15103920043"},
    "Complete": "100",
    "AwardDate": "08/12/1997",
    "Project_desc": "Another Iowa project example",
    "Contract$" : "1346.07",
    "Location" : {"State": "IA", "County":"Santa Cruz"} 
  },{  
    "id": 4331.934,
    "Contact_info": {"Name": "LONG DENISE", "Cell": "15103920043"},
    "Complete": "100",
    "AwardDate": "08/12/2012",
    "Project_desc": "New York State project example",
    "Contract$" : "1396.07",
    "Location" : {"State": "NY", "County":"Sonoma"} 
  },
  {  
    "id": 4331.935,
    "Contact_info": {"Name": "LONG DENISE", "Cell": "15103920043"},
    "Complete": "100",
    "AwardDate": "08/12/2019",
    "Project_desc": "Oregon project example",
    "Contract$" : "139.07",
    "Location" : {"State": "NJ", "County":"Sonoma"} 
  },
  {  
    "id": 4331.936,
    "Contact_info": {"Name": "RUGGERI DENISE", "Cell": "15103920043"},
    "Complete": "40",
    "AwardDate": "08/12/2021",
    "Project_desc": "Nevada project example",
    "Contract$" : "00.00",
    "Location" : {"State": "NV", "County":"Yolo"} 
  },
  {  
    "id": 4331.937,
    "Contact_info": {"Name": "VIVES MAR", "Cell": "15103920043"},
    "Complete": "30",
    "AwardDate": "08/12/1997",
    "Project_desc": "Arizona project example",
    "Contract$" : "6.07",
    "Location" : {"State": "AZ", "County":"Yolo"} 
  },
  {  
    "id": 4331.938,
    "Contact_info": {"Name": "GONZALES ANDREA", "Cell": "15103920043"},
    "Complete": "20",
    "AwardDate": "08/12/1997",
    "Project_desc": "Texas project example",
    "Contract$" : "33443.07",
    "Location" : {"State": "TX", "County":"San Francisco"} 
  },
  {  
    "id": 4331.939,
    "Contact_info": {"Name": "GONZALES ANDREA", "Cell": "15103920043"},
    "Complete": "30",
    "AwardDate": "08/12/1997",
    "Project_desc": "Kentucky project example",
    "Contract$" : "13926.07",
    "Location" : {"State": "KY", "County":"Santa Cruz"} 
  },{  
    "id": 4331.934,
    "Contact_info": {"Name": "LONG DENISE", "Cell": "15103920043"},
    "Complete": "40",
    "AwardDate": "08/12/2012",
    "Project_desc": "Montana project example",
    "Contract$" : "2346.07",
    "Location" : {"State": "MT", "County":"Sonoma"} 
  },
  {  
    "id": 4331.935,
    "Contact_info": {"Name": "LONG DENISE", "Cell": "15103920043"},
    "Complete": "90",
    "AwardDate": "08/12/2019",
    "Project_desc": "Hawaii project example",
    "Contract$" : "3346.07",
    "Location" : {"State": "HI", "County":"Sonoma"} 
  },
  {  
    "id": 4331.936,
    "Contact_info": {"Name": "RUGGERI DENISE", "Cell": "15103920043"},
    "Complete": "60",
    "AwardDate": "08/12/2021",
    "Project_desc": "Pu ªu Kuku Lava pickup",
    "Contract$" : "00.00",
    "Location" : {"State": "HI", "County":"Yolo"} 
  },
  {  
    "id": 4331.937,
    "Contact_info": {"Name": "VIVES MAR", "Cell": "15103920043"},
    "Complete": "40",
    "AwardDate": "08/12/1997",
    "Project_desc": "Alabama project example",
    "Contract$" : "146.07",
    "Location" : {"State": "AL", "County":"Yolo"} 
  },
  {  
    "id": 4331.938,
    "Contact_info": {"Name": "GONZALES ANDREA", "Cell": "15103920043"},
    "Complete": "20",
    "AwardDate": "08/12/1997",
    "Project_desc": "colorado project example",
    "Contract$" : "393.07",
    "Location" : {"State": "CO", "County":"San Francisco"} 
  },
  {  
    "id": 4331.939,
    "Contact_info": {"Name": "GONZALES ANDREA", "Cell": "15103920043"},
    "Complete": "10",
    "AwardDate": "08/12/1997",
    "Project_desc": "utah project example",
    "Contract$" : "9036.07",
    "Location" : {"State": "UT", "County":"Santa Cruz"} 
  },
  {  
    "id": 4331.934,
    "Contact_info": {"Name": "LONG DENISE", "Cell": "15103920043"},
    "Complete": "100",
    "AwardDate": "08/12/2012",
    "Project_desc": "North Carolina  project example",
    "Contract$" : "296.07",
    "Location" : {"State": "NC", "County":"Sonoma"} 
  },
  {  
    "id": 4331.935,
    "Contact_info": {"Name": "LONG DENISE", "Cell": "15103920043"},
    "Complete": "100",
    "AwardDate": "08/12/2019",
    "Project_desc": "Wyoming project example",
    "Contract$" : "2930.07",
    "Location" : {"State": "WY", "County":"Sonoma"} 
  },
  {  
    "id": 4331.936,
    "Contact_info": {"Name": "RUGGERI DENISE", "Cell": "15103920043"},
    "Complete": "100",
    "AwardDate": "08/12/2021",
    "Project_desc": "oklahoma project example",
    "Contract$" : "20.00",
    "Location" : {"State": "OK", "County":"Yolo"} 
  },
  {  
    "id": 4331.937,
    "Contact_info": {"Name": "VIVES MAR", "Cell": "15103920043"},
    "Complete": "100",
    "AwardDate": "08/12/1997",
    "Project_desc": "Rhode Island project examplep",
    "Contract$" : "146.07",
    "Location" : {"State": "RI", "County":"Yolo"} 
  },
  {  
    "id": 4331.938,
    "Contact_info": {"Name": "GONZALES ANDREA", "Cell": "15103920043"},
    "Complete": "100",
    "AwardDate": "08/12/1997",
    "Project_desc": "Texas  project example",
    "Contract$" : "3933213.07",
    "Location" : {"State": "TX", "County":"San Francisco"} 
  },
  {  
    "id": 4331.939,
    "Contact_info": {"Name": "GONZALES ANDREA", "Cell": "15103920043"},
    "Complete": "100",
    "AwardDate": "08/12/1997",
    "Project_desc": "Iowa  project example",
    "Contract$" : "3926.07",
    "Location" : {"State": "IA", "County":"Santa Cruz"} 
  },{  
    "id": 4331.934,
    "Contact_info": {"Name": "LONG DENISE", "Cell": "15103920043"},
    "Complete": "100",
    "AwardDate": "08/12/2012",
    "Project_desc": "New Jersey  project example",
    "Contract$" : "2346.07",
    "Location" : {"State": "NJ", "County":"Sonoma"} 
  },
  {  
    "id": 4331.935,
    "Contact_info": {"Name": "LONG DENISE", "Cell": "15103920043"},
    "Complete": "100",
    "AwardDate": "08/12/2019",
    "Project_desc": "New Hampshire sproject example",
    "Contract$" : "2936.07",
    "Location" : {"State": "NH", "County":"Sonoma"} 
  },
  {  
    "id": 4331.936,
    "Contact_info": {"Name": "RUGGERI DENISE", "Cell": "15103920043"},
    "Complete": "100",
    "AwardDate": "08/12/2021",
    "Project_desc": "New Hampshire project example",
    "Contract$" : "20.00",
    "Location" : {"State": "NH", "County":"Yolo"} 
  },
  {  
    "id": 4331.937,
    "Contact_info": {"Name": "VIVES MAR", "Cell": "15103920043"},
    "Complete": "100",
    "AwardDate": "08/12/1997",
    "Project_desc": "georgia project example",
    "Contract$" : "146.07",
    "Location" : {"State": "GA", "County":"Yolo"} 
  },
  {  
    "id": 4331.938,
    "Contact_info": {"Name": "GONZALES ANDREA", "Cell": "15103920043"},
    "Complete": "100",
    "AwardDate": "08/12/1997",
    "Project_desc": "Virginia  project example",
    "Contract$" : "2984.07",
    "Location" : {"State": "VA", "County":"San Francisco"} 
  },
  {  
    "id": 4331.939,
    "Contact_info": {"Name": "GONZALES ANDREA", "Cell": "15103920043"},
    "Complete": "100",
    "AwardDate": "08/12/1997",
    "Project_desc": "Maryland  project example",
    "Contract$" : "49306.07",
    "Location" : {"State": "MD", "County":"Santa Cruz"} 
  },{  
    "id": 4331.934,
    "Contact_info": {"Name": "LONG DENISE", "Cell": "15103920043"},
    "Complete": "100",
    "AwardDate": "08/12/2012",
    "Project_desc": "delaware project example",
    "Contract$" : "396.07",
    "Location" : {"State": "DE", "County":"Sonoma"} 
  },
  {  
    "id": 4331.935,
    "Contact_info": {"Name": "LONG DENISE", "Cell": "15103920043"},
    "Complete": "100",
    "AwardDate": "08/12/2019",
    "Project_desc": "South Carolina  project example",
    "Contract$" : "5346.07",
    "Location" : {"State": "SC", "County":"Sonoma"} 
  },
  {  
    "id": 4331.936,
    "Contact_info": {"Name": "RUGGERI DENISE", "Cell": "15103920043"},
    "Complete": "40",
    "AwardDate": "08/12/2021",
    "Project_desc": "Mississipi  project example",
    "Contract$" : "00.00",
    "Location" : {"State": "MS", "County":"Yolo"} 
  },
  {  
    "id": 4331.937,
    "Contact_info": {"Name": "VIVES MAR", "Cell": "15103920043"},
    "Complete": "30",
    "AwardDate": "08/12/1997",
    "Project_desc": "Alaska  project example",
    "Contract$" : "146.07",
    "Location" : {"State": "AK", "County":"Yolo"} 
  },
  {  
    "id": 4331.938,
    "Contact_info": {"Name": "GONZALES ANDREA", "Cell": "15103920043"},
    "Complete": "20",
    "AwardDate": "08/12/1997",
    "Project_desc": "Tennessee  project example",
    "Contract$" : "23443.07",
    "Location" : {"State": "TN", "County":"San Francisco"} 
  },
  {  
    "id": 4331.939,
    "Contact_info": {"Name": "GONZALES ANDREA", "Cell": "15103920043"},
    "Complete": "30",
    "AwardDate": "08/12/1997",
    "Project_desc": "Kentucky  project example",
    "Contract$" : "1346.07",
    "Location" : {"State": "KY", "County":"Santa Cruz"} 
  },{  
    "id": 4331.934,
    "Contact_info": {"Name": "LONG DENISE", "Cell": "15103920043"},
    "Complete": "40",
    "AwardDate": "08/12/2012",
    "Project_desc": " project example",
    "Contract$" : "1346.07",
    "Location" : {"State": "IN", "County":"Sonoma"} 
  },
  {  
    "id": 4331.935,
    "Contact_info": {"Name": "LONG DENISE", "Cell": "15103920043"},
    "Complete": "90",
    "AwardDate": "08/12/2019",
    "Project_desc": "Chicago  project example",
    "Contract$" : "1346.07",
    "Location" : {"State": "IL", "County":"Sonoma"} 
  },
  {  
    "id": 4331.936,
    "Contact_info": {"Name": "RUGGERI DENISE", "Cell": "15103920043"},
    "Complete": "60",
    "AwardDate": "08/12/2021",
    "Project_desc": "Winsconsin  project example",
    "Contract$" : "00.00",
    "Location" : {"State": "WI", "County":"Yolo"} 
  },
  {  
    "id": 4331.937,
    "Contact_info": {"Name": "VIVES MAR", "Cell": "15103920043"},
    "Complete": "40",
    "AwardDate": "08/12/1997",
    "Project_desc": "Minnesota  project example",
    "Contract$" : "146.07",
    "Location" : {"State": "MN", "County":"Yolo"} 
  },
  {  
    "id": 4331.938,
    "Contact_info": {"Name": "GONZALES ANDREA", "Cell": "15103920043"},
    "Complete": "20",
    "AwardDate": "08/12/1997",
    "Project_desc": "North Dakota  project example",
    "Contract$" : "2443.07",
    "Location" : {"State": "ND", "County":"San Francisco"} 
  },
  {  
    "id": 4331.939,
    "Contact_info": {"Name": "GONZALES ANDREA", "Cell": "15103920043"},
    "Complete": "10",
    "AwardDate": "08/12/1997",
    "Project_desc": "south dakota project",
    "Contract$" : "1346.07",
    "Location" : {"State": "SD", "County":"Santa Cruz"} 
  },{  
    "id": 4331.934,
    "Contact_info": {"Name": "LONG DENISE", "Cell": "15103920043"},
    "Complete": "100",
    "AwardDate": "08/12/2012",
    "Project_desc": "north carolina  project example",
    "Contract$" : "1346.07",
    "Location" : {"State": "NC", "County":"Sonoma"} 
  },
  {  
    "id": 4331.935,
    "Contact_info": {"Name": "LONG DENISE", "Cell": "15103920043"},
    "Complete": "100",
    "AwardDate": "08/12/2019",
    "Project_desc": "West Virginia  project example",
    "Contract$" : "1346.07",
    "Location" : {"State": "WV", "County":"Sonoma"} 
  },
  {  
    "id": 4331.936,
    "Contact_info": {"Name": "RUGGERI DENISE", "Cell": "15103920043"},
    "Complete": "100",
    "AwardDate": "08/12/2021",
    "Project_desc": "Oklahoma  project example ",
    "Contract$" : "20.00",
    "Location" : {"State": "OK", "County":"Yolo"} 
  },
  {  
    "id": 4331.937,
    "Contact_info": {"Name": "VIVES MAR", "Cell": "15103920043"},
    "Complete": "100",
    "AwardDate": "08/12/1997",
    "Project_desc": "Rhode island  project example",
    "Contract$" : "146.07",
    "Location" : {"State": "RI", "County":"Yolo"} 
  },
  {  
    "id": 4331.938,
    "Contact_info": {"Name": "GONZALES ANDREA", "Cell": "15103920043"},
    "Complete": "100",
    "AwardDate": "08/12/1997",
    "Project_desc": "El paso  project example",
    "Contract$" : "3943.07",
    "Location" : {"State": "TX", "County":"San Francisco"} 
  },
  {  
    "id": 4331.939,
    "Contact_info": {"Name": "GONZALES ANDREA", "Cell": "15103920043"},
    "Complete": "100",
    "AwardDate": "08/12/1997",
    "Project_desc": "Iowa  project example",
    "Contract$" : "1346.07",
    "Location" : {"State": "IA", "County":"Santa Cruz"} 
  },{  
    "id": 4331.934,
    "Contact_info": {"Name": "LONG DENISE", "Cell": "15103920043"},
    "Complete": "100",
    "AwardDate": "08/12/2012",
    "Project_desc": "South of canada  project example",
    "Contract$" : "1346.07",
    "Location" : {"State": "WA", "County":"Sonoma"} 
  },
  {  
    "id": 4331.935,
    "Contact_info": {"Name": "LONG DENISE", "Cell": "15103920043"},
    "Complete": "100",
    "AwardDate": "08/12/2019",
    "Project_desc": "Oregon  project example",
    "Contract$" : "1346.07",
    "Location" : {"State": "OR", "County":"Sonoma"} 
  },
  {  
    "id": 4331.936,
    "Contact_info": {"Name": "RUGGERI DENISE", "Cell": "15103920043"},
    "Complete": "100",
    "AwardDate": "08/12/2021",
    "Project_desc": "Las Vegas  project example",
    "Contract$" : "20.00",
    "Location" : {"State": "NV", "County":"Yolo"} 
  },
  {  
    "id": 4331.937,
    "Contact_info": {"Name": "VIVES MAR", "Cell": "15103920043"},
    "Complete": "100",
    "AwardDate": "08/12/1997",
    "Project_desc": "lake oroville project example",
    "Contract$" : "146.07",
    "Location" : {"State": "CA", "County":"Yolo"} 
  },
  {  
    "id": 4331.938,
    "Contact_info": {"Name": "GONZALES ANDREA", "Cell": "15103920043"},
    "Complete": "100",
    "AwardDate": "08/12/1997",
    "Project_desc": "El Paso  project example",
    "Contract$" : "13443.07",
    "Location" : {"State": "NB", "County":"San Francisco"} 
  },
  {  
    "id": 4331.939,
    "Contact_info": {"Name": "GONZALES ANDREA", "Cell": "15103920043"},
    "Complete": "100",
    "AwardDate": "08/12/1997",
    "Project_desc": "Iowa  project example",
    "Contract$" : "2226.07",
    "Location" : {"State": "IA", "County":"Santa Cruz"} 
  },{  
    "id": 4331.934,
    "Contact_info": {"Name": "LONG DENISE", "Cell": "15103920043"},
    "Complete": "100",
    "AwardDate": "08/12/2012",
    "Project_desc": "Long Island  project example",
    "Contract$" : "229.07",
    "Location" : {"State": "NY", "County":"Sonoma"} 
  },
  {  
    "id": 4331.935,
    "Contact_info": {"Name": "LONG DENISE", "Cell": "15103920043"},
    "Complete": "100",
    "AwardDate": "08/12/2019",
    "Project_desc": "Mount Bailey  project example",
    "Contract$" : "346.07",
    "Location" : {"State": "OR", "County":"Sonoma"} 
  },
  {  
    "id": 4331.936,
    "Contact_info": {"Name": "RUGGERI DENISE", "Cell": "15103920043"},
    "Complete": "40",
    "AwardDate": "08/12/2021",
    "Project_desc": "Desert Creek Campground Nevada  project example",
    "Contract$" : "00.00",
    "Location" : {"State": "NV", "County":"Yolo"} 
  },
  {  
    "id": 4331.937,
    "Contact_info": {"Name": "VIVES MAR", "Cell": "15103920043"},
    "Complete": "30",
    "AwardDate": "08/12/1997",
    "Project_desc": "Arizona Camp  project example",
    "Contract$" : "146.07",
    "Location" : {"State": "AZ", "County":"Yolo"} 
  },
  {  
    "id": 4331.938,
    "Contact_info": {"Name": "GONZALES ANDREA", "Cell": "15103920043"},
    "Complete": "20",
    "AwardDate": "08/12/1997",
    "Project_desc": "Texas  project example",
    "Contract$" : "382443.07",
    "Location" : {"State": "TX", "County":"San Francisco"} 
  },
  {  
    "id": 4331.939,
    "Contact_info": {"Name": "GONZALES ANDREA", "Cell": "15103920043"},
    "Complete": "30",
    "AwardDate": "08/12/1997",
    "Project_desc": "Kentucky  project example",
    "Contract$" : "1346.07",
    "Location" : {"State": "KY", "County":"Santa Cruz"} 
  },{  
    "id": 4331.934,
    "Contact_info": {"Name": "LONG DENISE", "Cell": "15103920043"},
    "Complete": "40",
    "AwardDate": "08/12/2012",
    "Project_desc": "montana project example",
    "Contract$" : "946.07",
    "Location" : {"State": "MT", "County":"Sonoma"} 
  },
  {  
    "id": 4331.935,
    "Contact_info": {"Name": "LONG DENISE", "Cell": "15103920043"},
    "Complete": "90",
    "AwardDate": "08/12/2019",
    "Project_desc": "Mauna Kea  project example",
    "Contract$" : "39456.07",
    "Location" : {"State": "HI", "County":"Sonoma"} 
  },
  {  
    "id": 4331.936,
    "Contact_info": {"Name": "RUGGERI DENISE", "Cell": "15103920043"},
    "Complete": "60",
    "AwardDate": "08/12/2021",
    "Project_desc": "Arkansas project example",
    "Contract$" : "00.00",
    "Location" : {"State": "AR", "County":"Yolo"} 
  },
  {  
    "id": 4331.937,
    "Contact_info": {"Name": "VIVES MAR", "Cell": "15103920043"},
    "Complete": "40",
    "AwardDate": "08/12/1997",
    "Project_desc": "Alabama  project example",
    "Contract$" : "146.07",
    "Location" : {"State": "AL", "County":"Yolo"} 
  },
  {  
    "id": 4331.938,
    "Contact_info": {"Name": "GONZALES ANDREA", "Cell": "15103920043"},
    "Complete": "20",
    "AwardDate": "08/12/1997",
    "Project_desc": " project example",
    "Contract$" : "999443.07",
    "Location" : {"State": "ME", "County":"San Francisco"} 
  },
  {  
    "id": 4331.939,
    "Contact_info": {"Name": "GONZALES ANDREA", "Cell": "15103920043"},
    "Complete": "10",
    "AwardDate": "08/12/1997",
    "Project_desc": "Utah project example",
    "Contract$" : "1936.07",
    "Location" : {"State": "UT", "County":"Santa Cruz"} 
  }
]