[ {  
  "id": 4331.934,
  "Contact_info": {"Name": "LONG DENISE", "Cell": "15103920043"},
  "Complete": "100",
  "AwardDate": "08/12/2012",
  "Project_desc": "People are very nice here and so are the trees",
  "Contract$" : "1346.07",
  "Location" : {"State": "NC", "County":"Sonoma"} 
},
{  
  "id": 4331.935,
  "Contact_info": {"Name": "LONG DENISE", "Cell": "15103920043"},
  "Complete": "100",
  "AwardDate": "08/12/2019",
  "Project_desc": "Mount Bailey rock pickup",
  "Contract$" : "1346.07",
  "Location" : {"State": "OR", "County":"Sonoma"} 
},
{  
  "id": 4331.936,
  "Contact_info": {"Name": "RUGGERI DENISE", "Cell": "15103920043"},
  "Complete": "100",
  "AwardDate": "08/12/2021",
  "Project_desc": "Where is oklahoma and since when was it a state??",
  "Contract$" : "20.00",
  "Location" : {"State": "OK", "County":"Yolo"} 
},
{  
  "id": 4331.937,
  "Contact_info": {"Name": "VIVES MAR", "Cell": "15103920043"},
  "Complete": "100",
  "AwardDate": "08/12/1997",
  "Project_desc": "i can't find rhode island on this map",
  "Contract$" : "146.07",
  "Location" : {"State": "RI", "County":"Yolo"} 
},
{  
  "id": 4331.938,
  "Contact_info": {"Name": "GONZALES ANDREA", "Cell": "15103920043"},
  "Complete": "100",
  "AwardDate": "08/12/1997",
  "Project_desc": "El paso cactus weeding",
  "Contract$" : "13443.07",
  "Location" : {"State": "TX", "County":"San Francisco"} 
},
{  
  "id": 4331.939,
  "Contact_info": {"Name": "GONZALES ANDREA", "Cell": "15103920043"},
  "Complete": "100",
  "AwardDate": "08/12/1997",
  "Project_desc": "corn huskers unanimous meeting",
  "Contract$" : "1346.07",
  "Location" : {"State": "IA", "County":"Santa Cruz"} 
},{  
  "id": 4331.934,
  "Contact_info": {"Name": "LONG DENISE", "Cell": "15103920043"},
  "Complete": "100",
  "AwardDate": "08/12/2012",
  "Project_desc": "South of canada convention",
  "Contract$" : "1346.07",
  "Location" : {"State": "WA", "County":"Sonoma"} 
},
{  
  "id": 4331.935,
  "Contact_info": {"Name": "LONG DENISE", "Cell": "15103920043"},
  "Complete": "100",
  "AwardDate": "08/12/2019",
  "Project_desc": "Mount Bailey rock pickup",
  "Contract$" : "1346.07",
  "Location" : {"State": "OR", "County":"Sonoma"} 
},
{  
  "id": 4331.936,
  "Contact_info": {"Name": "RUGGERI DENISE", "Cell": "15103920043"},
  "Complete": "100",
  "AwardDate": "08/12/2021",
  "Project_desc": "Las Vegas ",
  "Contract$" : "20.00",
  "Location" : {"State": "NV", "County":"Yolo"} 
},
{  
  "id": 4331.937,
  "Contact_info": {"Name": "VIVES MAR", "Cell": "15103920043"},
  "Complete": "100",
  "AwardDate": "08/12/1997",
  "Project_desc": "lake oroville dam cleaning",
  "Contract$" : "146.07",
  "Location" : {"State": "CA", "County":"Yolo"} 
},
{  
  "id": 4331.938,
  "Contact_info": {"Name": "GONZALES ANDREA", "Cell": "15103920043"},
  "Complete": "100",
  "AwardDate": "08/12/1997",
  "Project_desc": "El Paso Cactus growing",
  "Contract$" : "13443.07",
  "Location" : {"State": "TX", "County":"San Francisco"} 
},
{  
  "id": 4331.939,
  "Contact_info": {"Name": "GONZALES ANDREA", "Cell": "15103920043"},
  "Complete": "100",
  "AwardDate": "08/12/1997",
  "Project_desc": "Tractor rental",
  "Contract$" : "1346.07",
  "Location" : {"State": "IA", "County":"Santa Cruz"} 
},{  
  "id": 4331.934,
  "Contact_info": {"Name": "LONG DENISE", "Cell": "15103920043"},
  "Complete": "100",
  "AwardDate": "08/12/2012",
  "Project_desc": "Long Island tree removal",
  "Contract$" : "1346.07",
  "Location" : {"State": "NY", "County":"Sonoma"} 
},
{  
  "id": 4331.935,
  "Contact_info": {"Name": "LONG DENISE", "Cell": "15103920043"},
  "Complete": "100",
  "AwardDate": "08/12/2019",
  "Project_desc": "Mount Bailey rock pickup",
  "Contract$" : "1346.07",
  "Location" : {"State": "OR", "County":"Sonoma"} 
},
{  
  "id": 4331.936,
  "Contact_info": {"Name": "RUGGERI DENISE", "Cell": "15103920043"},
  "Complete": "40",
  "AwardDate": "08/12/2021",
  "Project_desc": "Desert Creek Campground Nevada",
  "Contract$" : "00.00",
  "Location" : {"State": "NV", "County":"Yolo"} 
}
]